[
    {
        "name": "Paris",
        "country": "França",
        "city": "Paris",
        "coordinates": "48.8566° N, 2.3522° E",
        "near_airport": true,
        "url": "https://www.parisinfo.com/"
    },
    {
        "name": "Rio de Janeiro",
        "country": "Brasil",
        "city": "Rio de Janeiro",
        "coordinates": "22.9068° S, 43.1729° W",
        "near_airport": true,
        "url": "https://visit.rio/en/"
    },
    {
        "name": "Nova Iorque",
        "country": "Estados Unidos",
        "city": "Nova Iorque",
        "coordinates": "40.7128° N, 74.0060° W",
        "near_airport": true,
        "url": "https://www.nycgo.com/"
    },
    {
        "name": "Los Angeles",
        "country": "Estados Unidos",
        "city": "Los Angeles",
        "coordinates": "34.0522° N, 118.2437° W",
        "near_airport": true,
        "url": "https://www.discoverlosangeles.com/"
    },
    {
        "name": "Chicago",
        "country": "Estados Unidos",
        "city": "Chicago",
        "coordinates": "41.8781° N, 87.6298° W",
        "near_airport": true,
        "url": "https://www.choosechicago.com/"
    },
    {
        "name": "Houston",
        "country": "Estados Unidos",
        "city": "Houston",
        "coordinates": "29.7604° N, 95.3698° W",
        "near_airport": true,
        "url": "https://www.visithoustontexas.com/"
    },
    {
        "name": "Phoenix",
        "country": "Estados Unidos",
        "city": "Phoenix",
        "coordinates": "33.4484° N, 112.0740° W",
        "near_airport": true,
        "url": "https://www.visitphoenix.com/"
    },
    {
        "name": "Filadélfia",
        "country": "Estados Unidos",
        "city": "Filadélfia",
        "coordinates": "39.9526° N, 75.1652° W",
        "near_airport": true,
        "url": "https://www.visitphilly.com/"
    },
    {
        "name": "San Antonio",
        "country": "Estados Unidos",
        "city": "San Antonio",
        "coordinates": "29.4241° N, 98.4936° W",
        "near_airport": true,
        "url": "https://www.visitsanantonio.com/"
    },
    {
        "name": "San Diego",
        "country": "Estados Unidos",
        "city": "San Diego",
        "coordinates": "32.7157° N, 117.1611° W",
        "near_airport": true,
        "url": "https://www.sandiego.org/"
    },
    {
        "name": "Dallas",
        "country": "Estados Unidos",
        "city": "Dallas",
        "coordinates": "32.7767° N, 96.7970° W",
        "near_airport": true,
        "url": "https://www.visitdallas.com/"
    },
    {
        "name": "San José",
        "country": "Estados Unidos",
        "city": "San José",
        "coordinates": "37.3382° N, 121.8863° W",
        "near_airport": true,
        "url": "https://www.sanjose.org/"
    },
    {
        "name": "Tóquio",
        "country": "Japão",
        "city": "Tóquio",
        "coordinates": "35.6895° N, 139.6917° E",
        "near_airport": false,
        "url": "https://www.gotokyo.org/en/"
    },
    {
        "name": "Londres",
        "country": "Reino Unido",
        "city": "Londres",
        "coordinates": "51.5074° N, 0.1278° W",
        "near_airport": false,
        "url": "https://www.visitlondon.com/"
    }
]